City_ID,City,Lat,Lng,Max Temp,Humidity,Cloudiness,Wind Speed,Country,Date
0,ushuaia,-54.8,-68.3,37.06,87,40,6.91,AR,1621665562
1,pevek,69.7008,170.3133,30.09,90,91,6.98,RU,1621665856
2,doka,13.5167,35.7667,98.58,8,9,11.9,SD,1621665856
3,cape town,-33.9258,18.4232,52.12,60,0,3.2,ZA,1621665670
4,mataura,-46.1927,168.8643,49.48,93,0,2.17,NZ,1621665857
5,busselton,-33.65,115.3333,60.08,88,100,17.05,AU,1621665857
6,rikitea,-23.1203,-134.9692,76.37,61,100,9.48,PF,1621665858
7,klyuchi,52.2667,79.1667,71.06,44,83,7.14,RU,1621665858
8,punta arenas,-53.15,-70.9167,41.11,86,20,4.05,CL,1621665859
9,arraial do cabo,-22.9661,-42.0278,71.89,88,35,9.93,BR,1621665859
10,butaritari,3.0707,172.7902,83.61,79,100,19.51,KI,1621665859
11,farafangana,-22.8167,47.8333,74.82,56,54,2.17,MG,1621665860
12,pula,44.8683,13.8481,62.49,88,40,8.05,HR,1621665860
13,bengkulu,-3.8004,102.2655,81.82,69,83,4.59,ID,1621665861
14,novosergiyevka,52.0934,53.6528,79.57,40,14,16.87,RU,1621665861
15,carnarvon,-24.8667,113.6333,80.67,41,100,14.97,AU,1621665861
16,port elizabeth,-33.918,25.5701,52.09,66,0,9.22,ZA,1621665862
17,vice,-5.4167,-80.7833,66.69,76,10,11.07,PE,1621665862
18,geraldton,-28.7667,114.6,77.41,61,100,20.45,AU,1621665863
19,tiksi,71.6872,128.8694,30.56,86,100,5.88,RU,1621665863
20,barrow,71.2906,-156.7887,33.82,80,40,14.97,US,1621665781
21,nantucket,41.2835,-70.0995,57.02,89,100,13.24,US,1621665633
22,sept-iles,50.2001,-66.3821,55.92,97,75,5.75,CA,1621665768
23,atuona,-9.8,-139.0333,79.9,71,10,17.09,PF,1621665864
24,hit,33.6416,42.8251,100.94,13,10,10.65,IQ,1621665865
25,jamestown,42.097,-79.2353,67.84,80,1,3.44,US,1621665792
26,achisu,42.652,47.6828,69.49,47,1,6.2,RU,1621665865
27,safranbolu,41.2508,32.6942,55.22,86,86,3.06,TR,1621665866
28,sitka,57.0531,-135.33,48.09,93,90,9.22,US,1621665866
29,kavaratti,10.5669,72.642,82.54,76,100,5.73,IN,1621665866
30,dikson,73.5069,80.5464,31.28,90,100,6.15,RU,1621665867
31,westport,41.1415,-73.3579,64.67,88,20,1.54,US,1621665867
32,ilulissat,69.2167,-51.1,28.42,80,90,10.36,GL,1621665868
33,surany,48.0861,18.1845,59.05,79,100,8.3,SK,1621665868
34,half moon bay,37.4636,-122.4286,55.33,87,90,0.0,US,1621665868
35,albany,42.6001,-73.9662,68.61,71,100,3.44,US,1621665648
36,tabas,33.5959,56.9244,90.95,11,1,1.99,IR,1621665869
37,kapaa,22.0752,-159.319,78.78,71,75,1.99,US,1621665805
38,iqaluit,63.7506,-68.5145,20.93,73,90,8.01,CA,1621665870
39,talnakh,69.4865,88.3972,34.03,100,100,11.52,RU,1621665870
40,norman wells,65.282,-126.8329,59.04,38,75,5.75,CA,1621665870
41,guerrero negro,27.9769,-114.0611,58.77,71,0,19.91,MX,1621665871
42,loule,37.1377,-8.0197,60.51,58,0,16.26,PT,1621665871
43,aljezur,37.3191,-8.8033,56.98,70,100,14.38,PT,1621665872
44,harper,4.375,-7.7169,78.66,81,99,1.34,LR,1621665872
45,doha,25.2867,51.5333,103.98,27,0,3.44,QA,1621665743
46,sao joao da barra,-21.6403,-41.0511,70.57,90,100,3.13,BR,1621665873
47,codrington,-38.2667,141.9667,60.26,57,5,7.45,AU,1621665873
48,nikolskoye,59.7035,30.7861,55.29,47,15,11.36,RU,1621665873
49,cochrane,51.1834,-114.4687,40.6,71,1,2.55,CA,1621665874
50,den helder,52.9599,4.7593,52.07,90,90,21.85,NL,1621665874
51,lagoa,39.05,-27.9833,57.78,56,4,17.27,PT,1621665875
52,vao,-22.6667,167.4833,72.21,68,3,17.11,NC,1621665875
53,vaini,-21.2,-175.2,78.96,94,75,10.36,TO,1621665875
54,kjollefjord,70.9457,27.3465,34.65,67,100,23.35,NO,1621665876
55,qaanaaq,77.484,-69.3632,20.26,66,28,8.95,GL,1621665876
56,saskylakh,71.9167,114.0833,28.71,82,39,5.37,RU,1621665877
57,mareeba,-17.0,145.4333,72.48,79,81,5.66,AU,1621665877
58,faanui,-16.4833,-151.75,81.79,73,5,13.6,PF,1621665877
59,kaysville,41.0352,-111.9386,53.92,32,1,8.01,US,1621665878
60,kedrovoye,57.1576,60.5698,78.24,43,100,9.84,RU,1621665878
61,sinazongwe,-17.2614,27.4618,71.17,49,0,2.37,ZM,1621665879
62,severo-kurilsk,50.6789,156.125,39.63,82,4,12.82,RU,1621665879
63,port alfred,-33.5906,26.891,59.27,57,0,12.19,ZA,1621665880
64,tasiilaq,65.6145,-37.6368,26.76,73,100,4.36,GL,1621665880
65,upernavik,72.7868,-56.1549,24.28,94,100,3.18,GL,1621665881
66,sterna,41.5653,26.4593,67.86,65,7,2.62,GR,1621665881
67,pailitas,8.9565,-73.6255,75.87,96,100,0.83,CO,1621665881
68,cabo san lucas,22.8909,-109.9124,76.8,67,65,11.01,MX,1621665882
69,beringovskiy,63.05,179.3167,31.98,92,100,2.59,RU,1621665882
70,nizwa,22.9333,57.5333,104.94,7,0,1.61,OM,1621665883
71,biak,-0.9131,122.8766,81.16,72,99,3.85,ID,1621665883
72,forbes,-33.3833,148.0167,58.96,61,0,4.63,AU,1621665884
73,new norfolk,-42.7826,147.0587,60.3,49,3,3.0,AU,1621665884
74,tuktoyaktuk,69.4541,-133.0374,29.39,86,14,16.04,CA,1621665885
75,yellowknife,62.456,-114.3525,43.32,52,20,3.0,CA,1621665885
76,bethel,41.3712,-73.414,63.41,74,1,0.0,US,1621665885
77,bollnas,61.3482,16.3946,52.39,64,100,4.03,SE,1621665886
78,pisco,-13.7,-76.2167,64.45,82,90,2.3,PE,1621665886
79,bluff,-46.6,168.3333,49.8,81,62,14.41,NZ,1621665887
80,khandyga,62.6667,135.6,50.4,50,100,7.67,RU,1621665887
81,spassk,52.747,87.7545,48.29,65,100,9.04,RU,1621665887
82,san andres,12.5847,-81.7006,80.62,89,75,12.66,CO,1621665888
83,hamilton,39.1834,-84.5333,67.71,90,1,1.45,US,1621665888
84,fuerte olimpo,-21.0415,-57.8738,80.01,59,7,7.31,PY,1621665889
85,puerto ayora,-0.7393,-90.3518,75.54,91,94,8.99,EC,1621665889
86,mount isa,-20.7333,139.5,82.17,26,35,6.91,AU,1621665889
87,yulara,-25.2406,130.9889,78.64,18,0,10.36,AU,1621665890
88,mahebourg,-20.4081,57.7,76.24,64,40,13.8,MU,1621665890
89,bredasdorp,-34.5322,20.0403,43.92,71,0,3.22,ZA,1621665891
90,lima,-12.0432,-77.0282,63.14,82,90,9.22,PE,1621665675
91,along,28.1667,94.7667,74.16,98,100,0.74,IN,1621665891
92,sao filipe,14.8961,-24.4956,71.74,78,3,9.69,CV,1621665892
93,kaitangata,-46.2817,169.8464,50.94,79,0,4.18,NZ,1621665892
94,manaus,-3.1019,-60.025,79.29,83,75,4.61,BR,1621665892
95,dehloran,32.6941,47.2679,108.14,7,61,6.31,IR,1621665893
96,yumen,40.2833,97.2,65.77,13,6,23.69,CN,1621665893
97,saldanha,-33.0117,17.9442,44.65,65,0,6.22,ZA,1621665894
98,tintigny,49.6833,5.5135,48.94,97,100,16.64,BE,1621665894
99,skibbereen,51.55,-9.2667,44.4,77,100,10.0,IE,1621665894
100,asgabat,37.95,58.3833,96.66,11,0,18.41,TM,1621665895
101,wajima,37.4,136.9,63.28,87,75,23.35,JP,1621665895
102,gigmoto,13.7796,124.39,85.37,72,75,5.32,PH,1621665848
103,ponta do sol,32.6667,-17.1,67.71,79,43,7.78,PT,1621665896
104,aklavik,68.2191,-135.0107,56.23,60,100,13.22,CA,1621665897
105,oistins,13.0667,-59.5333,78.96,76,91,19.57,BB,1621665897
106,the valley,18.217,-63.0578,80.1,76,100,16.44,AI,1621665897
107,hiroshima,34.3963,132.4594,69.62,70,67,4.74,JP,1621665898
108,lebu,-37.6167,-73.65,49.66,87,40,1.74,CL,1621665898
109,kodiak,57.79,-152.4072,44.11,81,90,3.44,US,1621665898
110,hasaki,35.7333,140.8333,65.17,74,100,15.48,JP,1621665899
111,hobart,-42.8794,147.3294,60.66,66,20,5.99,AU,1621665899
112,ikom,5.9667,8.7063,77.11,93,99,1.61,NG,1621665900
113,ambilobe,-13.2,49.05,82.89,47,2,2.28,MG,1621665900
114,ucluelet,48.9329,-125.5528,53.1,89,88,9.89,CA,1621665901
115,dhidhdhoo,6.8833,73.1,83.23,79,100,18.88,MV,1621665901
116,praia,14.9215,-23.5087,70.34,78,75,9.22,CV,1621665902
117,khatanga,71.9667,102.5,31.87,96,66,2.59,RU,1621665902
118,georgetown,5.4112,100.3354,89.89,66,20,1.01,MY,1621665651
119,tarancon,40.0085,-3.0073,59.34,58,100,7.05,ES,1621665904
120,kitgum,3.2783,32.8867,80.04,58,3,4.99,UG,1621665904
121,adamovka,51.5223,59.9396,81.95,24,99,10.78,RU,1621665905
122,sakakah,29.9697,40.2064,83.77,16,55,14.92,SA,1621665736
123,cayenne,4.9333,-52.3333,76.08,90,90,12.35,GF,1621665905
124,dakar,14.6937,-17.4441,69.93,88,75,9.22,SN,1621665724
125,san carlos de bariloche,-41.1456,-71.3082,28.15,90,20,6.91,AR,1621665907
126,hofn,64.2539,-15.2082,39.22,56,100,15.5,IS,1621665908
127,port blair,11.6667,92.75,82.74,82,100,16.04,IN,1621665908
128,torbay,47.6666,-52.7314,52.68,83,1,29.93,CA,1621665908
129,adrar,20.5022,-10.0711,84.29,25,2,7.72,MR,1621665909
130,rovenki,48.0833,39.3776,64.33,74,100,13.44,UA,1621665910
131,valleyview,55.0667,-117.2859,42.84,49,15,10.36,CA,1621665911
132,mandapam,9.2833,79.1167,85.5,73,94,23.29,IN,1621665912
133,mar del plata,-38.0023,-57.5575,61.09,41,90,14.0,AR,1621665745
134,cockburn town,21.4612,-71.1419,77.22,75,99,18.05,TC,1621665647
135,tias,28.9611,-13.645,67.75,77,20,27.63,ES,1621665912
136,castro,-24.7911,-50.0119,58.62,86,100,12.19,BR,1621665913
137,thompson,55.7435,-97.8558,28.56,86,75,2.3,CA,1621665733
138,leningradskiy,69.3833,178.4167,32.22,90,100,6.44,RU,1621665913
139,eureka,40.8021,-124.1637,51.21,85,33,7.0,US,1621665914
140,victoria,22.2855,114.1577,93.96,67,8,8.99,HK,1621665834
141,auki,-8.7676,160.7034,79.83,86,67,1.54,SB,1621665914
142,imbituba,-28.24,-48.6703,66.09,96,100,10.65,BR,1621665915
143,spornoye,50.8448,37.2913,64.42,63,77,9.91,RU,1621665915
144,vilhena,-12.7406,-60.1458,68.43,93,100,2.8,BR,1621665916
145,muyezerskiy,63.9333,31.65,39.06,86,100,10.49,RU,1621665916
146,teknaf,20.8624,92.3058,91.44,59,19,11.83,BD,1621665917
147,lapinig,12.3151,125.3032,86.04,68,11,6.93,PH,1621665917
148,belaya gora,68.5333,146.4167,43.5,53,99,8.39,RU,1621665917
149,ouadda,8.0777,22.4007,79.84,67,99,4.34,CF,1621665918
150,solnechnyy,50.7214,136.6319,76.6,49,100,5.1,RU,1621665647
151,tonstad,58.6626,6.7169,54.63,96,100,10.42,NO,1621665918
152,chuchkovo,54.2693,41.4465,61.34,57,87,6.53,RU,1621665919
153,traverse city,44.7631,-85.6206,68.07,88,75,8.05,US,1621665919
154,ribeira grande,38.5167,-28.7,54.0,71,20,3.44,PT,1621665920
155,sola,-13.8833,167.55,81.27,74,90,0.0,VU,1621665920
156,comodoro rivadavia,-45.8667,-67.5,46.26,81,0,2.3,AR,1621665920
157,yerbogachen,61.2767,108.0108,54.07,30,100,0.34,RU,1621665921
158,trinidad,-14.8333,-64.9,77.11,78,100,2.62,BO,1621665921
159,srednekolymsk,67.45,153.6833,38.88,62,99,7.18,RU,1621665866
160,havelock,34.8791,-76.9013,64.35,95,7,4.16,US,1621665837
161,beloha,-25.1667,45.05,76.12,41,21,4.12,MG,1621665922
162,saint-pierre,-21.3393,55.4781,80.24,72,75,24.16,RE,1621665923
163,narasannapeta,18.4167,84.05,88.25,62,99,6.44,IN,1621665923
164,narsaq,60.9167,-46.05,30.42,80,67,3.42,GL,1621665924
165,avarua,-21.2078,-159.775,77.05,73,20,11.5,CK,1621665924
166,tahe,52.3333,124.7333,43.61,83,100,7.76,CN,1621665845
167,jeremie,18.65,-74.1167,75.52,82,100,2.19,HT,1621665925
168,acarau,-2.8856,-40.12,75.36,91,17,10.45,BR,1621665925
169,moshny,49.5147,31.7476,64.98,53,0,1.74,UA,1621665925
170,cherskiy,68.75,161.3,34.25,73,100,10.69,RU,1621665926
171,maloy,61.9353,5.1136,55.13,72,98,7.58,NO,1621665926
172,san rafael,-34.6177,-68.3301,47.1,56,0,7.2,AR,1621665927
173,shillong,25.5689,91.8831,78.84,81,40,4.61,IN,1621665910
174,puerto montt,-41.4698,-72.9447,45.43,93,75,5.06,CL,1621665927
175,clyde river,70.4692,-68.5914,3.43,92,1,4.61,CA,1621665928
176,kearney,40.6995,-99.0815,69.04,88,90,17.27,US,1621665849
177,lompoc,34.6391,-120.4579,53.49,68,90,9.22,US,1621665928
178,hithadhoo,-0.6,73.0833,84.16,71,29,9.06,MV,1621665929
179,lorengau,-2.0226,147.2712,83.75,76,64,0.63,PG,1621665929
180,gizo,-8.103,156.8419,82.89,78,100,12.37,SB,1621665929
181,moron,-34.6534,-58.6198,57.83,98,100,3.94,AR,1621665766
182,matamoros,25.5333,-103.25,80.11,38,0,6.24,MX,1621665930
183,bambous virieux,-20.3428,57.7575,76.21,58,40,17.98,MU,1621665931
184,derzhavinsk,51.1,66.3167,80.49,20,0,6.78,KZ,1621665931
185,pierre,44.3683,-100.351,70.72,86,20,5.01,US,1621665931
186,berlevag,70.8578,29.0864,34.72,70,100,24.96,NO,1621665932
187,sopot,54.4418,18.56,57.88,73,0,8.05,PL,1621665932
188,taree,-31.9,152.4667,64.33,72,75,2.3,AU,1621665933
189,hermanus,-34.4187,19.2345,51.91,67,0,7.25,ZA,1621665786
190,saint-philippe,-21.3585,55.7679,80.15,67,61,15.64,RE,1621665933
191,gat,31.61,34.7642,74.79,53,0,12.01,IL,1621665841
192,airai,-8.9266,125.4092,69.96,62,100,2.44,TL,1621665934
193,baiyin,36.5583,104.2081,49.08,54,100,20.4,CN,1621665934
194,dunedin,-45.8742,170.5036,49.8,64,0,1.01,NZ,1621665935
195,tinqueux,49.25,3.9833,51.82,77,90,19.13,FR,1621665935
196,springdale,36.1867,-94.1288,68.68,100,75,5.99,US,1621665936
197,oktyabrskoye,43.0645,44.7417,87.94,41,40,5.59,RU,1621665936
198,linjiang,41.8069,126.9078,81.61,32,75,8.34,CN,1621665936
199,carauari,-4.8828,-66.8958,73.62,97,100,1.1,BR,1621665937
200,lovozero,68.005,35.0117,35.71,98,100,7.87,RU,1621665937
201,canutama,-6.5339,-64.3831,76.98,84,100,0.31,BR,1621665938
202,nishihara,26.1842,127.7558,82.45,89,90,5.99,JP,1621665938
203,tortoli,39.9256,9.6572,58.82,88,0,2.3,IT,1621665939
204,serebryanyy bor,56.8,124.8,45.1,51,100,12.19,RU,1621665939
205,mildura,-34.2,142.15,71.56,24,1,1.14,AU,1621665939
206,east london,-33.0153,27.9116,58.14,51,0,9.22,ZA,1621665940
207,lanxi,29.2195,119.477,66.6,94,100,2.28,CN,1621665940
208,faya,18.3851,42.4509,80.71,20,0,2.77,SA,1621665941
209,vila velha,-20.3297,-40.2925,71.94,82,0,4.0,BR,1621665941
210,anadyr,64.75,177.4833,37.9,86,75,8.01,RU,1621665941
211,zhigansk,66.7697,123.3711,42.12,41,74,7.99,RU,1621665942
212,douglas,41.3,-96.167,71.47,87,90,5.99,US,1621665942
213,olinda,-8.0089,-34.8553,76.73,71,20,7.67,BR,1621665943
214,sangar,63.9242,127.4739,50.02,32,43,14.97,RU,1621665943
215,manggar,-2.8833,108.2667,85.39,70,57,6.51,ID,1621665944
216,hirado,33.3597,129.5531,72.75,70,3,6.55,JP,1621665944
217,senador jose porfirio,-2.5908,-51.9542,73.08,98,41,2.55,BR,1621665945
218,salalah,17.0151,54.0924,87.89,66,20,9.22,OM,1621665945
219,krasnoselkup,65.7,82.4667,49.39,80,99,12.15,RU,1621665946
220,diego de almagro,-26.3667,-70.05,54.77,36,100,3.31,CL,1621665946
221,pamanukan,-6.2842,107.8106,88.61,59,91,7.67,ID,1621665947
222,leh,34.1667,77.5833,49.5,19,71,3.47,IN,1621665947
223,balabac,7.9868,117.0645,86.2,70,37,12.82,PH,1621665947
224,vardo,70.3705,31.1107,33.73,86,100,28.05,NO,1621665948
225,buraydah,26.326,43.975,93.65,5,100,5.82,SA,1621665948
226,aksu,41.1231,80.2644,76.8,16,98,7.43,CN,1621665949
227,bathsheba,13.2167,-59.5167,79.41,76,67,19.17,BB,1621665949
228,kozhva,65.1073,57.0459,70.27,47,100,15.95,RU,1621665949
229,taoudenni,22.6783,-3.9836,92.23,25,36,8.25,ML,1621665950
230,ha tinh,18.3333,105.9,96.33,51,22,11.14,VN,1621665951
231,chokurdakh,70.6333,147.9167,29.3,92,90,1.05,RU,1621665951
232,vila,42.0304,-8.1588,45.32,89,100,3.11,PT,1621665951
233,gobabis,-22.45,18.9667,55.96,42,0,11.56,NA,1621665952
234,kollam,8.8833,76.6,80.47,80,100,8.5,IN,1621665952
235,asau,46.4333,26.4,66.4,60,100,4.12,RO,1621665953
236,hilo,19.7297,-155.09,70.79,91,90,5.75,US,1621665953
237,krasnoturansk,54.3186,91.5639,54.39,53,100,5.79,RU,1621665954
238,campoverde,-8.4753,-74.8058,72.18,92,1,0.85,PE,1621665954
239,bam,29.106,58.357,89.13,9,0,13.06,IR,1621665955
240,kavieng,-2.5744,150.7967,85.05,70,41,6.78,PG,1621665955
241,kharitonovo,61.4009,47.4978,61.81,46,79,10.67,RU,1621665956
242,desaguadero,-16.5656,-69.0417,36.82,35,0,1.14,PE,1621665956
243,iquitos,-3.7481,-73.2472,75.24,94,75,0.0,PE,1621665956
244,nanortalik,60.1432,-45.2371,33.15,83,100,14.5,GL,1621665957
245,altay,47.8667,88.1167,55.18,25,7,10.13,CN,1621665957
246,rio claro,-22.4114,-47.5614,52.81,49,100,5.53,BR,1621665716
247,sistranda,63.7256,8.834,51.76,81,86,11.07,NO,1621665958
248,saint george,37.1041,-113.5841,53.8,27,1,1.01,US,1621665959
249,mitchell,43.7094,-98.0298,69.75,83,1,4.0,US,1621665959
250,tawang,27.5833,91.8667,70.3,49,18,9.33,IN,1621665959
251,ulladulla,-35.35,150.4667,65.3,85,0,2.26,AU,1621665960
252,jonkoping,57.7814,14.1562,52.39,93,20,9.22,SE,1621665961
253,bowen,-20.0167,148.2333,77.22,69,98,16.67,AU,1621665961
254,bocas del toro,9.3333,-82.25,79.39,82,100,8.48,PA,1621665961
255,atherton,53.5237,-2.4935,47.28,75,100,3.0,GB,1621665962
256,esperance,-33.8667,121.9,75.04,42,100,10.42,AU,1621665962
257,damavand,35.7178,52.065,78.64,21,100,5.39,IR,1621665683
258,palauig,15.435,119.9045,85.46,74,100,11.56,PH,1621665963
259,nioro,13.35,-15.75,73.9,50,39,4.21,GM,1621665963
260,homer,59.6425,-151.5483,48.07,78,90,5.75,US,1621665964
261,berezovyy,51.6667,135.7,59.68,89,98,7.14,RU,1621665828
262,deputatskiy,69.3,139.9,31.69,95,100,2.62,RU,1621665846
263,angoche,-16.2325,39.9086,79.41,63,68,4.29,MZ,1621665965
264,uyemskiy,64.4743,40.8524,53.65,50,90,13.62,RU,1621665965
265,byron bay,-28.65,153.6167,69.69,76,8,10.04,AU,1621665884
266,kutum,14.2,24.6667,86.54,11,6,19.04,SD,1621665966
267,bonavista,48.6499,-53.1147,51.8,74,100,17.9,CA,1621665966
268,kununurra,-15.7667,128.7333,91.38,29,88,6.91,AU,1621665846
269,moengo,5.6167,-54.4,73.58,97,100,2.37,SR,1621665967
270,husavik,66.0449,-17.3389,33.71,77,87,4.25,IS,1621665967
271,ahipara,-35.1667,173.1667,58.28,85,100,11.36,NZ,1621665968
272,nuuk,64.1835,-51.7216,29.01,74,90,9.22,GL,1621665678
273,ginir,7.1333,40.7,69.85,57,67,3.53,ET,1621665968
274,ugoofaaru,5.6667,73.0,83.89,76,57,19.1,MV,1621665969
275,ushtobe,45.2514,77.9838,75.97,30,0,20.18,KZ,1621665969
276,petatlan,17.5167,-101.2667,76.14,56,10,1.9,MX,1621665970
277,tremedal,-14.9758,-41.4108,63.37,81,76,2.77,BR,1621665970
278,semey,50.4111,80.2275,68.22,40,0,4.47,KZ,1621665672
279,ligayan,4.6533,119.4706,83.37,72,93,1.19,PH,1621665971
280,arboledas,7.6423,-72.7994,67.48,93,88,3.58,CO,1621665971
281,lac du bonnet,50.2536,-96.0612,40.59,97,100,4.92,CA,1621665971
282,cachira,7.741,-73.0483,56.05,97,99,2.68,CO,1621665972
283,santarem,-2.4431,-54.7083,77.13,94,75,1.14,BR,1621665809
284,meadow lake,34.8014,-106.5436,66.2,45,25,4.43,US,1621665972
285,tuy hoa,13.0833,109.3,91.47,56,76,10.36,VN,1621665973
286,bairiki,1.3292,172.9752,84.2,82,75,21.3,KI,1621665973
287,yushu,44.8,126.5333,89.37,18,1,15.03,CN,1621665974
288,lynn haven,30.2455,-85.6483,73.98,72,1,4.0,US,1621665798
289,filadelfia,39.9523,-75.1638,69.94,62,75,1.01,US,1621665915
290,korcula,42.9622,17.1369,54.16,67,41,19.62,HR,1621665975
291,isangel,-19.55,169.2667,75.31,73,40,8.66,VU,1621665975
292,kijang,35.2442,129.2139,74.93,64,0,12.3,KR,1621665975
293,san cristobal,7.7669,-72.225,66.27,96,100,3.27,VE,1621665976
294,ravar,31.2656,56.8055,84.33,12,4,8.9,IR,1621665976
295,istok,42.7808,20.4875,58.15,69,52,4.23,XK,1621665977
296,luderitz,-26.6481,15.1594,64.83,40,0,5.48,NA,1621665977
297,eucaliptus,-17.5833,-67.5167,34.79,33,0,1.88,BO,1621665977
298,san quintin,30.4833,-115.95,56.73,77,0,16.89,MX,1621665978
299,celestun,20.8667,-90.4,76.23,85,100,9.35,MX,1621665978
300,aykhal,66.0,111.5,33.75,92,23,8.05,RU,1621665978
301,touros,-5.1989,-35.4608,72.5,82,9,11.1,BR,1621665979
302,kattivakkam,13.2167,80.3167,87.89,56,100,8.3,IN,1621665979
303,kasongo-lunda,-6.4667,16.8167,75.56,59,2,3.4,CD,1621665980
304,chara,56.9064,118.2631,47.39,33,99,12.17,RU,1621665980
305,mehamn,71.0357,27.8492,34.56,66,100,23.13,NO,1621665981
306,san agustin acasaguastlan,14.95,-89.9667,75.16,94,77,2.55,GT,1621665981
307,komsomolskiy,40.4272,71.7189,83.12,23,51,4.61,UZ,1621665981
308,grand gaube,-20.0064,57.6608,76.37,60,74,10.0,MU,1621665982
309,ayan,56.45,138.1667,35.4,96,100,8.46,RU,1621665982
310,pringsewu,-5.3582,104.9744,86.76,67,67,1.52,ID,1621665983
311,souillac,-20.5167,57.5167,76.35,60,40,18.72,MU,1621665983
312,chatra,24.2167,84.8667,87.78,27,89,8.61,IN,1621665984
313,astoria,46.1879,-123.8313,51.69,80,90,10.36,US,1621665984
314,tessalit,20.1986,1.0114,89.98,25,30,5.53,ML,1621665985
315,marystown,47.1666,-55.1483,46.4,83,73,11.39,CA,1621665969
316,roma,43.2128,-75.4557,69.66,85,1,0.0,US,1621665985
317,zaysan,47.4667,84.8667,60.87,45,71,8.01,KZ,1621665986
318,port hardy,50.6996,-127.4199,48.38,93,90,2.3,CA,1621665733
319,bereda,43.2686,-7.5406,50.41,88,100,5.35,ES,1621665986
320,turka,49.1541,23.0297,59.79,62,100,17.16,UA,1621665987
321,hamirpur,25.95,80.15,99.52,27,0,7.36,IN,1621665987
322,petropavlovsk-kamchatskiy,53.0452,158.6483,59.59,40,7,11.25,RU,1621665849
323,chicama,-7.8447,-79.1469,63.72,87,45,4.61,PE,1621665988
324,zhanaozen,43.3,52.8,97.32,10,0,16.73,KZ,1621665989
325,monywa,22.1167,95.1333,104.67,29,5,7.76,MM,1621665989
326,grindavik,63.8424,-22.4338,37.87,58,0,15.14,IS,1621665989
327,pindwara,24.8,73.0667,98.17,23,0,11.95,IN,1621665990
328,oum hadjer,13.2954,19.6966,93.18,35,49,15.5,TD,1621665990
329,verkhoyansk,67.5447,133.385,47.26,35,100,7.34,RU,1621665991
330,tilichiki,60.4667,166.1,32.99,95,100,6.58,RU,1621665991
331,pacific grove,36.6177,-121.9166,53.28,86,34,4.0,US,1621665846
332,liverpool,53.4106,-2.9779,47.68,78,100,1.99,GB,1621665910
333,digby,44.6169,-65.7655,54.55,79,100,10.78,CA,1621665992
334,qinhuangdao,39.9317,119.5883,76.41,56,13,18.01,CN,1621665993
335,bud,39.447,-86.1758,64.38,85,100,5.3,US,1621665993
336,awjilah,29.1081,21.2869,73.78,36,0,11.48,LY,1621665994
337,palasa,18.7667,84.4167,91.63,56,76,7.0,IN,1621665994
338,laguna,38.421,-121.4238,59.29,73,1,7.25,US,1621665994
339,balkanabat,39.5108,54.3671,100.72,9,0,18.88,TM,1621665995
340,katsuura,35.1333,140.3,69.91,82,100,22.88,JP,1621665995
341,abbeville,50.1,1.8333,51.76,91,100,23.02,FR,1621665996
342,mahon,39.8885,4.2658,63.16,94,40,13.8,ES,1621665996
343,priamurskiy,48.5217,134.9028,82.81,43,100,7.65,RU,1621665997
344,ostrovnoy,68.0531,39.5131,40.1,91,100,7.11,RU,1621665997
345,matara,5.9485,80.5353,83.79,79,82,12.46,LK,1621665997
346,clifton,40.8584,-74.1638,69.58,69,40,0.0,US,1621665998
347,goderich,43.7501,-81.7165,68.32,64,100,4.61,CA,1621665910
348,port keats,-14.25,129.55,85.17,44,86,9.51,AU,1621665998
349,ullapool,57.8987,-5.1604,46.76,77,96,7.78,GB,1621665999
350,formosa,-26.1775,-58.1781,64.38,82,40,4.61,AR,1621665894
351,bucerias,20.75,-105.3333,76.98,84,6,3.13,MX,1621665914
352,nhulunbuy,-12.2333,136.7667,79.41,83,90,13.8,AU,1621666000
353,haimen,23.1935,116.6142,93.09,67,7,16.22,CN,1621666000
354,ler,8.3018,30.1418,89.55,46,25,3.69,SS,1621666000
355,gediz,39.0417,29.41,53.26,70,74,6.62,TR,1621666001
356,dergachi,51.2328,48.7659,83.79,30,100,22.21,RU,1621666001
357,bubaque,11.2833,-15.8333,77.32,79,100,7.16,GW,1621666002
358,namatanai,-3.6667,152.4333,84.09,75,38,6.42,PG,1621666002
359,rocha,-34.4833,-54.3333,57.33,96,100,21.09,UY,1621665866
360,college,64.8569,-147.8028,55.38,49,75,5.75,US,1621666003
361,puerto del rosario,28.5004,-13.8627,69.55,73,20,17.27,ES,1621666004
362,vila franca do campo,37.7167,-25.4333,57.61,70,61,14.5,PT,1621666004
363,huambo,-12.7761,15.7392,60.3,54,5,5.39,AO,1621666005
364,tukrah,32.5341,20.5791,68.43,57,0,11.16,LY,1621666005
365,bambanglipuro,-7.95,110.2833,84.0,72,70,13.35,ID,1621666005
366,itarema,-2.9248,-39.9167,74.91,92,22,10.0,BR,1621666006
367,san miguel,13.4833,-88.1833,75.79,92,32,2.24,SV,1621666006
368,zhangjiakou,40.81,114.8794,88.52,15,100,18.14,CN,1621666007
369,saint simons,31.1352,-81.3901,73.44,83,90,12.66,US,1621665946
370,walvis bay,-22.9575,14.5053,72.55,30,0,10.89,NA,1621666007
371,sidney,-33.8679,151.2073,64.31,76,20,1.99,AU,1621665971
372,nogales,31.3086,-110.9422,66.69,24,1,4.47,MX,1621666008
373,okhotsk,59.3833,143.3,38.98,71,100,6.82,RU,1621666009
374,alice springs,-23.7,133.8833,76.55,21,0,11.99,AU,1621665876
375,kabare,-2.4683,28.8242,68.76,87,5,2.48,CD,1621666009
376,longyearbyen,78.2186,15.6401,24.64,63,75,6.91,SJ,1621665902
377,myanaung,18.2833,95.3167,102.69,29,41,10.65,MM,1621666010
378,saint andrews,34.0454,-81.1293,62.29,76,1,2.53,US,1621666010
379,necochea,-38.5473,-58.7368,56.03,73,100,11.34,AR,1621666011
380,west bay,19.3667,-81.4167,79.0,93,100,1.99,KY,1621666011
381,sao felix do xingu,-6.6447,-51.995,70.16,96,22,1.1,BR,1621666011
382,pervomayskiy,53.2485,40.2871,60.46,65,100,7.27,RU,1621666012
383,lagos,6.5833,3.75,77.32,83,100,6.29,NG,1621665951
384,opuwo,-18.0607,13.84,65.84,34,0,11.01,NA,1621666012
385,rundu,-17.9333,19.7667,64.27,37,1,10.31,NA,1621666013
386,christchurch,-43.5333,172.6333,48.99,91,0,3.44,NZ,1621665933
387,morondava,-20.2833,44.2833,78.17,43,0,7.11,MG,1621666013
388,sinnamary,5.3833,-52.95,77.09,90,100,10.69,GF,1621666014
389,huasahuasi,-11.3167,-75.6167,39.85,84,87,0.58,PE,1621666014
390,kuching,1.55,110.3333,86.22,84,40,2.3,MY,1621665794
391,conceicao das alagoas,-19.9147,-48.3883,67.69,48,100,5.39,BR,1621666015
392,wanaka,-44.7,169.15,42.55,67,0,1.61,NZ,1621666016
393,kahului,20.8947,-156.47,75.85,72,20,12.66,US,1621665731
394,chuy,-33.6971,-53.4616,60.13,92,100,22.03,UY,1621666016
395,andahuaylas,-13.6556,-73.3872,47.97,86,47,1.59,PE,1621666017
396,la ronge,55.1001,-105.2842,37.65,56,40,2.3,CA,1621666017
397,parfenyevo,58.484,43.4088,61.47,48,3,10.8,RU,1621666017
398,kieta,-6.2167,155.6333,81.5,84,24,1.66,PG,1621666018
399,lasa,46.6166,10.7002,47.28,100,100,1.81,IT,1621666018
400,banda aceh,5.5577,95.3222,86.77,66,100,13.87,ID,1621666019
401,lavrentiya,65.5833,-171.0,31.93,95,61,2.55,RU,1621666019
402,iranshahr,27.2025,60.6848,98.94,8,0,9.22,IR,1621666020
403,saint-francois,46.4154,3.9054,53.19,81,75,6.91,FR,1621666020
404,razole,16.4833,81.8333,89.89,66,100,5.57,IN,1621666020
405,puerto cabezas,14.0351,-83.3888,77.68,89,14,8.43,NI,1621666021
406,monforte de lemos,42.5216,-7.5142,51.69,87,80,4.18,ES,1621666021
407,biltine,14.5333,20.9167,94.82,9,28,12.95,TD,1621666022
408,araouane,18.9048,-3.5265,90.72,25,75,12.5,ML,1621666022
409,kumi,36.1136,128.336,80.28,45,0,11.25,KR,1621666023
410,weinan,34.5036,109.5089,85.69,41,100,11.59,CN,1621665983
411,lenine,45.2986,35.7771,64.94,74,86,17.29,UA,1621666023
412,kodinsk,58.6881,99.1844,56.28,29,100,4.52,RU,1621666024
413,labuhan,-6.8844,112.2051,83.71,71,60,8.19,ID,1621666024
414,brae,60.3964,-1.353,44.51,66,95,15.26,GB,1621666024
415,saint anthony,45.0205,-93.218,72.18,89,40,3.0,US,1621666025
416,cidreira,-30.1811,-50.2056,64.24,94,100,11.56,BR,1621666026
417,naryan-mar,67.6713,53.087,68.97,54,100,17.52,RU,1621666026
418,los llanos de aridane,28.6585,-17.9182,67.12,63,20,22.64,ES,1621666026
419,acapulco,16.8634,-99.8901,79.83,55,90,3.85,MX,1621666027
420,adeje,28.1227,-16.726,75.02,60,0,1.99,ES,1621666027
421,road town,18.4167,-64.6167,80.69,74,100,16.84,VG,1621666028
422,krasnoarmeysk,51.0239,45.6969,74.46,55,100,3.47,RU,1621666028
423,praia da vitoria,38.7333,-27.0667,57.45,62,20,17.85,PT,1621666028
424,mitsamiouli,-11.3847,43.2844,81.12,62,5,8.79,KM,1621666029
425,quatre cocos,-20.2078,57.7625,76.08,58,71,18.92,MU,1621666029
426,tigzirt,36.8886,4.1198,71.8,59,50,5.41,DZ,1621666030
427,newala,-10.9431,39.2787,68.52,77,100,3.49,TZ,1621666030
428,menongue,-14.6585,17.691,65.43,44,0,8.01,AO,1621666030
429,morristown,36.214,-83.2949,68.05,64,20,0.0,US,1621665949
430,mayumba,-3.432,10.6554,79.18,84,92,3.36,GA,1621666031
431,luanda,-8.8368,13.2343,75.2,94,40,2.3,AO,1621666031
432,sabancuy,18.9667,-91.1833,74.68,90,73,6.44,MX,1621665974
433,denpasar,-8.65,115.2167,85.66,67,20,9.35,ID,1621666032
434,holzminden,51.828,9.4455,53.85,73,74,15.99,DE,1621666032
435,lerwick,60.1545,-1.1494,44.6,67,100,16.69,GB,1621666033
436,portland,45.5234,-122.6762,52.56,84,0,1.01,US,1621666019
437,tiarei,-17.5333,-149.3333,78.82,74,18,10.56,PF,1621666033
438,fare,-16.7,-151.0167,81.55,72,0,12.88,PF,1621666034
439,makhinjauri,41.6739,41.694,62.46,86,75,11.23,GE,1621666034
440,klimovo,52.3805,32.1923,60.1,67,5,11.88,RU,1621666034
441,marsh harbour,26.5412,-77.0636,74.79,63,13,21.68,BS,1621666035
442,yumbing,9.2393,124.6578,84.22,69,68,4.25,PH,1621666035
443,san patricio,28.017,-97.5169,77.09,95,23,7.2,US,1621666036
444,tuapse,44.1125,39.0742,66.06,79,100,8.14,RU,1621666036
445,fairbanks,64.8378,-147.7164,55.4,48,90,5.75,US,1621665750
446,beziers,43.3476,3.219,58.28,58,0,8.66,FR,1621666037
447,sovetskiy,61.3614,63.5842,76.71,36,10,12.08,RU,1621666037
448,shakawe,-18.3667,21.85,66.25,33,0,9.15,BW,1621666037
449,kamaishi,39.2667,141.8833,68.95,97,100,6.33,JP,1621666038
450,ilhabela,-23.7781,-45.3581,69.37,74,100,5.88,BR,1621666015
451,jurm,36.8648,70.8342,66.92,39,66,5.3,AF,1621666039
452,micheweni,-4.9667,39.8333,80.38,71,99,11.95,TZ,1621666039
453,albanel,48.8832,-72.4487,64.54,100,100,6.91,CA,1621666040
454,puri,19.8,85.85,93.72,68,98,11.83,IN,1621666040
455,aleksandrovskoye,44.7142,43.0008,82.54,68,17,13.15,RU,1621666040
456,provideniya,64.3833,-173.3,39.54,71,42,6.64,RU,1621665905
457,plouzane,48.3833,-4.6167,50.32,77,75,19.55,FR,1621666041
458,mahdasht,35.7299,50.8111,88.02,13,40,16.11,IR,1621666041
459,ust-maya,60.4167,134.5333,52.39,27,92,10.31,RU,1621666042
460,mazagao,-0.115,-51.2894,78.85,98,59,2.66,BR,1621666042
461,omboue,-1.5746,9.2618,75.87,92,100,4.25,GA,1621666043
462,benghazi,32.1167,20.0667,67.89,57,6,9.6,LY,1621666043
463,tautira,-17.7333,-149.15,78.82,75,21,10.67,PF,1621666044
464,orange,33.7,-117.7675,58.59,79,90,1.01,US,1621666044
465,ati,13.2154,18.3353,94.26,30,13,10.25,TD,1621666044
466,linqiong,30.4159,103.4609,81.79,54,89,4.65,CN,1621666045
467,tobol,52.6844,62.5794,82.81,32,97,8.52,KZ,1621666045
468,dingle,10.9995,122.6711,86.88,64,49,1.74,PH,1621666046
469,bonthe,7.5264,-12.505,76.08,88,100,2.42,SL,1621666046
470,havre,49.5833,0.3333,51.35,81,90,22.57,FR,1621666047
471,rio tercero,-32.173,-64.1141,52.81,55,0,14.94,AR,1621666047
472,sur,22.5667,59.5289,97.47,36,0,9.19,OM,1621666048
473,daru,-9.0763,143.2092,78.91,89,100,17.76,PG,1621666048
474,ferrol,43.4832,-8.2369,52.27,79,90,12.64,ES,1621666048
475,nyurba,63.2842,118.3319,52.41,34,96,6.58,RU,1621666049
476,tarko-sale,64.9225,77.785,73.04,49,24,7.07,RU,1621666049
477,mpika,-11.8343,31.4529,66.15,45,3,10.07,ZM,1621666050
478,meulaboh,4.1363,96.1285,86.77,62,68,5.77,ID,1621666050
479,manuk mangkaw,4.8,119.85,83.73,71,96,3.56,PH,1621666050
480,langarud,37.197,50.1535,75.25,55,92,5.03,IR,1621666051
481,alegrete,-29.7831,-55.7919,59.56,92,100,14.63,BR,1621666051
482,alofi,-19.0595,-169.9187,78.69,94,100,4.61,NU,1621666052
483,kon tum,14.35,108.0,93.16,43,71,4.07,VN,1621666052
484,sabha,27.0377,14.4283,88.05,19,0,14.54,LY,1621666053
485,dengzhou,37.8086,120.7508,77.67,46,3,7.0,CN,1621666053
486,mombasa,-4.0547,39.6636,82.81,74,40,10.36,KE,1621666053
487,takoradi,4.8845,-1.7554,78.91,84,100,3.78,GH,1621666054
488,duzce,40.8389,31.1639,54.84,99,100,4.21,TR,1621665915
489,goryachegorsk,55.4053,88.9154,47.66,63,100,11.81,RU,1621666055
490,svetlaya,46.5389,138.3297,55.18,71,100,4.65,RU,1621666055
491,coos bay,43.3665,-124.2179,52.99,81,90,8.05,US,1621665775
492,tura,25.5198,90.2201,84.18,75,38,3.51,IN,1621666056
493,argos,37.6333,22.7333,67.28,38,2,1.79,GR,1621665860
494,haines junction,60.7522,-137.5108,44.55,57,99,5.75,CA,1621665855
495,nouakchott,18.0858,-15.9785,66.13,93,5,7.85,MR,1621665809
496,mwense,-10.3845,28.698,70.92,43,7,7.27,ZM,1621666057
497,waverley,-25.7023,28.2591,56.53,43,22,2.3,ZA,1621666058
498,sembakung,3.8167,117.25,89.53,53,61,0.51,ID,1621666058
499,lixourion,38.2019,20.4314,66.2,57,0,1.83,GR,1621666059
500,roebourne,-20.7833,117.1333,84.83,22,0,7.63,AU,1621666059
501,bani,18.2833,-70.3333,77.86,76,100,9.24,DO,1621666059
502,palmer,42.1584,-72.3287,67.19,75,75,2.44,US,1621665935
503,pekalongan,-6.8886,109.6753,90.01,68,51,6.29,ID,1621666060
504,veraval,20.9,70.3667,87.17,68,6,11.52,IN,1621666060
505,torrevieja,37.9787,-0.6822,74.19,83,11,4.0,ES,1621666001
506,tiznit,29.5833,-9.5,86.11,19,98,2.66,MA,1621666061
507,chukhloma,58.7525,42.6825,59.94,44,0,11.48,RU,1621666061
508,ancud,-41.8697,-73.8203,48.42,85,89,2.71,CL,1621666062
509,swellendam,-34.0226,20.4417,43.18,72,0,3.27,ZA,1621666062
510,florianopolis,-27.6146,-48.5012,68.63,97,75,1.99,BR,1621666063
511,bani walid,31.7566,13.9942,68.45,56,0,9.51,LY,1621666063
512,sarai sidhu,30.5949,71.9698,98.37,11,0,7.96,PK,1621666064
513,kenora,49.8167,-94.4337,65.59,100,75,8.05,CA,1621666064
514,caloundra,-26.8,153.1333,69.64,77,0,14.32,AU,1621666064
515,xinxiang,35.3089,113.8672,95.05,18,78,14.61,CN,1621666065
516,marfino,55.7028,37.3822,61.88,48,0,9.82,RU,1621666065
517,ewo,-0.8725,14.8206,76.48,84,91,2.98,CG,1621666066
518,moen,69.1304,18.6123,41.72,52,75,12.66,NO,1621666066
519,eyl,7.9803,49.8164,86.83,52,100,21.68,SO,1621666066
520,clarence town,-32.5833,151.7833,63.86,87,0,3.83,AU,1621666067
521,upington,-28.4478,21.2561,50.38,57,0,2.3,ZA,1621666067
522,mooresville,35.5849,-80.8101,61.32,86,100,4.25,US,1621666068
523,salta,-24.7859,-65.4117,54.19,65,90,4.0,AR,1621665843
524,breza,44.0183,18.2608,61.45,57,100,5.28,BA,1621666068
525,elizabeth city,36.2946,-76.2511,59.02,95,90,0.0,US,1621665845
526,fuyang,32.9,115.8167,85.19,46,99,8.08,CN,1621666069
527,havre-saint-pierre,50.2334,-63.5986,53.96,100,90,8.05,CA,1621666069
528,fortuna,40.5982,-124.1573,50.94,59,90,3.0,US,1621666070
529,damghan,36.1683,54.348,81.5,15,100,3.65,IR,1621666070
530,muros,42.7762,-9.0603,50.99,73,100,11.59,ES,1621666071
531,bada,51.392,109.8717,44.35,63,100,13.18,RU,1621666071
532,uppsala,60.0,17.75,54.43,53,90,5.41,SE,1621666071
533,gilbues,-9.8317,-45.3439,68.9,62,2,3.2,BR,1621666072
534,merauke,-8.4667,140.3333,81.45,84,85,15.55,ID,1621666072
535,sribne,50.6638,32.9187,61.84,60,4,4.21,UA,1621666073
536,stornoway,58.2093,-6.3865,40.96,87,40,13.8,GB,1621666073
537,hot springs,34.5037,-93.0552,71.31,90,90,1.99,US,1621665827
538,izhma,65.0083,53.9113,65.46,62,95,13.94,RU,1621666074
539,unity,52.4501,-109.1682,39.78,64,55,5.73,CA,1621665788
540,roald,62.5833,6.1333,59.16,76,23,4.61,NO,1621666074
541,mugumu,-1.85,34.7,71.67,64,96,3.02,TZ,1621666075
542,mastic beach,40.7668,-72.8521,62.8,87,1,1.01,US,1621666075
543,emerald,-23.5333,148.1667,77.14,36,90,8.05,AU,1621666076
544,olivenza,38.6832,-7.103,54.46,59,100,7.61,ES,1621666076
545,marmaris,36.855,28.2742,71.55,42,0,10.65,TR,1621665885
546,mponela,-13.5319,33.7401,60.89,47,6,7.2,MW,1621666077
547,luganville,-15.5333,167.1667,77.0,78,94,9.15,VU,1621666077
548,talcahuano,-36.7167,-73.1167,46.08,100,20,3.44,CL,1621665844
549,horasan,40.0458,42.1728,77.58,26,93,13.6,TR,1621666078
550,ouegoa,-20.35,164.4333,72.25,68,12,7.38,NC,1621666078
551,kyzyl-suu,42.3414,78.0056,62.33,38,0,7.9,KG,1621666079
552,tabat,-2.635,115.2274,93.99,43,32,2.17,ID,1621666079
553,waipawa,-41.4122,175.5153,51.03,69,100,7.96,NZ,1621666080
554,nizhnekamsk,55.6366,51.8245,70.59,57,0,19.39,RU,1621665866
555,bolshaya martynovka,47.271,41.6679,65.68,77,100,7.31,RU,1621666080
556,mahanje,-9.9333,35.3333,68.31,65,84,0.67,TZ,1621666081
557,port-gentil,-0.7193,8.7815,76.96,94,75,5.75,GA,1621666081
558,campina verde,-19.5356,-49.4864,67.6,48,100,6.85,BR,1621666082
559,vestmannaeyjar,63.4427,-20.2734,41.79,72,36,9.35,IS,1621666082
560,kaeo,-35.1,173.7833,57.33,87,100,14.81,NZ,1621666083
561,hami,42.8,93.45,65.37,12,18,4.74,CN,1621666083
562,basar,27.9833,94.6667,76.46,98,99,1.54,IN,1621666083
563,flin flon,54.7682,-101.865,27.54,99,72,3.6,CA,1621665911
564,talas,38.6908,35.5538,61.47,52,40,9.75,TR,1621666084
565,wuwei,37.9281,102.6414,51.33,63,100,4.68,CN,1621666085
566,formosa do rio preto,-11.0483,-45.1931,67.55,64,0,1.36,BR,1621666085
567,pingliang,35.5392,106.6861,52.09,63,100,25.26,CN,1621666086
568,batemans bay,-35.7167,150.1833,61.92,87,0,2.44,AU,1621666086
